{"type":"FeatureCollection","features":[{"type":"Feature","properties":{title: "Alberto Gerin","marker-color": "#f00", url: "http://www.tasc.it/author/alberto-gerin"},"geometry":{"type":"Point","coordinates":[13.7768182,45.6495264]}},{"type":"Feature","properties":{title: "Alberto Ziveri","marker-color": "#f00", url: "http://www.tasc.it/author/albertozi"},"geometry":{"type":"Point","coordinates":[10.3279036,44.801485]}},{"type":"Feature","properties":{title: "Alessandro Belli","marker-color": "#f00", url: "http://www.tasc.it/author/alessandrobelli"},"geometry":{"type":"Point","coordinates":[11.3426163,44.494887]}},{"type":"Feature","properties":{title: "Angelo Delicato","marker-color": "#f00", url: "http://www.tasc.it/author/angelodelicato"},"geometry":{"type":"Point","coordinates":[13.9851231,41.2928103]}},{"type":"Feature","properties":{title: "Mario","marker-color": "#f00", url: "http://www.tasc.it/author/centaurx"},"geometry":{"type":"Point","coordinates":[9.1859243,45.4654219]}},{"type":"Feature","properties":{title: "Elisabetta Tortorella","marker-color": "#f00", url: "http://www.tasc.it/author/elisabetta"},"geometry":{"type":"Point","coordinates":[10.4016888,43.7228386]}},{"type":"Feature","properties":{title: "Gabriele Trapani","marker-color": "#f00", url: "http://www.tasc.it/author/gabri10"},"geometry":{"type":"Point","coordinates":[9.1859243,45.4654219]}},{"type":"Feature","properties":{title: "Giorgio Coltella","marker-color": "#f00", url: "http://www.tasc.it/author/giorgi-coltella"},"geometry":{"type":"Point","coordinates":[7.4927355,44.6445404]}},{"type":"Feature","properties":{title: "Gregorio Candolo","marker-color": "#f00", url: "http://www.tasc.it/author/gregorio-candolo"},"geometry":{"type":"Point","coordinates":[13.3612671,38.1156879]}},{"type":"Feature","properties":{title: "Jacopo Agostini","marker-color": "#f00", url: "http://www.tasc.it/author/jacoago"},"geometry":{"type":"Point","coordinates":[11.9005017,42.1557504]}},{"type":"Feature","properties":{title: "Andrea Fabbri","marker-color": "#f00", url: "http://www.tasc.it/author/jango"},"geometry":{"type":"Point","coordinates":[12.5646003,44.0570817]}},{"type":"Feature","properties":{title: "Lavinia Maisto","marker-color": "#f00", url: "http://www.tasc.it/author/lavinov"},"geometry":{"type":"Point","coordinates":[11.7954132,42.0924239]}},{"type":"Feature","properties":{title: "Luca Della Zazzera","marker-color": "#f00", url: "http://www.tasc.it/author/lucadz"},"geometry":{"type":"Point","coordinates":[14.2681244,40.8517746]}},{"type":"Feature","properties":{title: "Marco Biral","marker-color": "#f00", url: "http://www.tasc.it/author/marcobiral"},"geometry":{"type":"Point","coordinates":[12.2342958,45.5537964]}},{"type":"Feature","properties":{title: "Matteo Pelosi","marker-color": "#f00", url: "http://www.tasc.it/author/matteopelosi"},"geometry":{"type":"Point","coordinates":[9.1859243,45.4654219]}},{"type":"Feature","properties":{title: "Beatrice","marker-color": "#f00", url: "http://www.tasc.it/author/narayan"},"geometry":{"type":"Point","coordinates":[10.4016888,43.7228386]}},{"type":"Feature","properties":{title: "Domenico Neto","marker-color": "#f00", url: "http://www.tasc.it/author/netodomenico"},"geometry":{"type":"Point","coordinates":[12.0761045,41.9498965]}},{"type":"Feature","properties":{title: "Enrico Guglielmi","marker-color": "#f00", url: "http://www.tasc.it/author/nrc382"},"geometry":{"type":"Point","coordinates":[11.3426163,44.494887]}},{"type":"Feature","properties":{title: "Patrizio Stella","marker-color": "#f00", url: "http://www.tasc.it/author/patriziostella"},"geometry":{"type":"Point","coordinates":[12.1297097,45.9068105]}},{"type":"Feature","properties":{title: "Alessandro Ionni","marker-color": "#f00", url: "http://www.tasc.it/author/sephirothv92"},"geometry":{"type":"Point","coordinates":[14.2681244,40.8517746]}},{"type":"Feature","properties":{title: "Ugo Possenti","marker-color": "#f00", url: "http://www.tasc.it/author/ugoposs"},"geometry":{"type":"Point","coordinates":[12.4801802,41.8723889]}},]}